[
  {
    "No": "1",
    "name": "利尻山（利尻富士）",
    "latitude": "45.1786111",
    "longitude": "141.2419444",
    "yomi": "りしりざん（りしりふじ）",
    "elevation": "1721",
    "prefecture": "北海道",
    "region": "北海道",
    "remarks": null
  },
  {
    "No": "2",
    "name": "羅臼岳",
    "latitude": "44.0758333",
    "longitude": "145.1222222",
    "yomi": "らうすだけ",
    "elevation": "1661",
    "prefecture": "北海道",
    "region": "北海道",
    "remarks": "H26年標高変更"
  },
  {
    "No": "3",
    "name": "斜里岳",
    "latitude": "43.7655555",
    "longitude": "144.7177777",
    "yomi": "しゃりだけ",
    "elevation": "1547",
    "prefecture": "北海道",
    "region": "北海道",
    "remarks": null
  },
  {
    "No": "4",
    "name": "阿寒岳（雌阿寒岳）",
    "latitude": "43.3866666",
    "longitude": "144.0088888",
    "yomi": "あかんだけ（めあかんだけ）",
    "elevation": "1499",
    "prefecture": "北海道",
    "region": "北海道",
    "remarks": null
  },
  {
    "No": "5",
    "name": "大雪山（旭岳）",
    "latitude": "43.6636111",
    "longitude": "142.8541666",
    "yomi": "だいせつざん（あさひだけ）",
    "elevation": "2291",
    "prefecture": "北海道",
    "region": "北海道",
    "remarks": null
  },
  {
    "No": "6",
    "name": "トムラウシ山",
    "latitude": "43.5272222",
    "longitude": "142.8488888",
    "yomi": "とむらうしやま",
    "elevation": "2141",
    "prefecture": "北海道",
    "region": "北海道",
    "remarks": null
  },
  {
    "No": "7",
    "name": "十勝岳",
    "latitude": "43.4180555",
    "longitude": "142.6863888",
    "yomi": "とかちだけ",
    "elevation": "2077",
    "prefecture": "北海道",
    "region": "北海道",
    "remarks": null
  },
  {
    "No": "8",
    "name": "幌尻岳",
    "latitude": "42.7194444",
    "longitude": "142.6827777",
    "yomi": "ぽろしりだけ",
    "elevation": "2052",
    "prefecture": "北海道",
    "region": "北海道",
    "remarks": "H26年標高変更"
  },
  {
    "No": "9",
    "name": "後方羊蹄山（羊蹄山）",
    "latitude": "42.8266666",
    "longitude": "140.8113888",
    "yomi": "しりべしやま（ようていざん）",
    "elevation": "1898",
    "prefecture": "北海道",
    "region": "北海道",
    "remarks": null
  },
  {
    "No": "10",
    "name": "岩木山",
    "latitude": "40.6558333",
    "longitude": "140.3030555",
    "yomi": "いわきやま",
    "elevation": "1625",
    "prefecture": "青森県",
    "region": "東北",
    "remarks": null
  },
  {
    "No": "11",
    "name": "八甲田山（大岳）",
    "latitude": "40.6588888",
    "longitude": "140.8772222",
    "yomi": "はっこうださん（おおだけ）",
    "elevation": "1585",
    "prefecture": "青森県",
    "region": "東北",
    "remarks": "H22年標高変更"
  },
  {
    "No": "12",
    "name": "八幡平",
    "latitude": "39.9577777",
    "longitude": "140.8541666",
    "yomi": "はちまんたい",
    "elevation": "1613",
    "prefecture": "岩手県",
    "region": "東北",
    "remarks": null
  },
  {
    "No": "13",
    "name": "岩手山",
    "latitude": "39.8525",
    "longitude": "141.0011111",
    "yomi": "いわてさん",
    "elevation": "2038",
    "prefecture": "岩手県",
    "region": "東北",
    "remarks": null
  },
  {
    "No": "14",
    "name": "早池峰山",
    "latitude": "39.5586111",
    "longitude": "141.4886111",
    "yomi": "はやちねやま",
    "elevation": "1917",
    "prefecture": "岩手県",
    "region": "東北",
    "remarks": null
  },
  {
    "No": "15",
    "name": "鳥海山（新山）",
    "latitude": "39.0991666",
    "longitude": "140.0488888",
    "yomi": "ちょうかいさん（しんざん）",
    "elevation": "2236",
    "prefecture": "山形県",
    "region": "東北",
    "remarks": null
  },
  {
    "No": "16",
    "name": "月山",
    "latitude": "38.5488888",
    "longitude": "140.0269444",
    "yomi": "がっさん",
    "elevation": "1984",
    "prefecture": "山形県",
    "region": "東北",
    "remarks": null
  },
  {
    "No": "17",
    "name": "朝日岳（大朝日岳）",
    "latitude": "38.2605555",
    "longitude": "139.9222222",
    "yomi": "あさひだけ（おおあさひだけ）",
    "elevation": "1871",
    "prefecture": "山形県",
    "region": "東北",
    "remarks": "H22年標高変更"
  },
  {
    "No": "18",
    "name": "蔵王山（熊野岳）",
    "latitude": "38.1436111",
    "longitude": "140.44",
    "yomi": "ざおうざん（くまのだけ）",
    "elevation": "1841",
    "prefecture": "山形県",
    "region": "東北",
    "remarks": null
  },
  {
    "No": "19",
    "name": "飯豊山",
    "latitude": "37.8547222",
    "longitude": "139.7072222",
    "yomi": "いいでさん",
    "elevation": "2105",
    "prefecture": "福島県",
    "region": "東北",
    "remarks": null
  },
  {
    "No": "20",
    "name": "吾妻山（西吾妻山）",
    "latitude": "37.7383333",
    "longitude": "140.1408333",
    "yomi": "あづまやま（にしあづまやま）",
    "elevation": "2035",
    "prefecture": "山形県・福島県",
    "region": "東北",
    "remarks": null
  },
  {
    "No": "21",
    "name": "安達太良山",
    "latitude": "37.6211111",
    "longitude": "140.2877777",
    "yomi": "あだたらやま",
    "elevation": "1700",
    "prefecture": "福島県",
    "region": "東北",
    "remarks": null
  },
  {
    "No": "22",
    "name": "磐梯山",
    "latitude": "37.6008333",
    "longitude": "140.0722222",
    "yomi": "ばんだいさん",
    "elevation": "1816",
    "prefecture": "福島県",
    "region": "東北",
    "remarks": "H22年標高変更"
  },
  {
    "No": "23",
    "name": "駒ヶ岳（会津駒ヶ岳）",
    "latitude": "37.0475",
    "longitude": "139.3536111",
    "yomi": "こまがたけ（あいづこまがたけ）",
    "elevation": "2133",
    "prefecture": "福島県",
    "region": "東北",
    "remarks": null
  },
  {
    "No": "24",
    "name": "那須岳（茶臼岳）",
    "latitude": "37.1247222",
    "longitude": "139.9627777",
    "yomi": "なすだけ（ちゃうすだけ）",
    "elevation": "1915",
    "prefecture": "栃木県",
    "region": "東北",
    "remarks": null
  },
  {
    "No": "25",
    "name": "駒ヶ岳（越後駒ヶ岳）",
    "latitude": "37.1236111",
    "longitude": "139.0752777",
    "yomi": "こまがたけ（えちごこまがたけ）",
    "elevation": "2003",
    "prefecture": "新潟県",
    "region": "上信越",
    "remarks": null
  },
  {
    "No": "26",
    "name": "平ヶ岳",
    "latitude": "37.0019444",
    "longitude": "139.1708333",
    "yomi": "ひらがたけ",
    "elevation": "2141",
    "prefecture": "群馬県･新潟県",
    "region": "上信越",
    "remarks": null
  },
  {
    "No": "27",
    "name": "巻機山",
    "latitude": "36.9786111",
    "longitude": "138.9641666",
    "yomi": "まきはたやま",
    "elevation": "1967",
    "prefecture": "群馬県･新潟県",
    "region": "上信越",
    "remarks": null
  },
  {
    "No": "28",
    "name": "燧ヶ岳（柴安嵓）",
    "latitude": "36.955",
    "longitude": "139.2852777",
    "yomi": "ひうちがたけ（しばやすぐら）",
    "elevation": "2356",
    "prefecture": "福島県",
    "region": "上信越",
    "remarks": null
  },
  {
    "No": "29",
    "name": "至仏山",
    "latitude": "36.9036111",
    "longitude": "139.1733333",
    "yomi": "しぶつさん",
    "elevation": "2228",
    "prefecture": "群馬県",
    "region": "上信越",
    "remarks": null
  },
  {
    "No": "30",
    "name": "谷川岳（オキノ耳）",
    "latitude": "36.8372222",
    "longitude": "138.93",
    "yomi": "たにがわだけ（おきのみみ）",
    "elevation": "1977",
    "prefecture": "群馬県･新潟県",
    "region": "上信越",
    "remarks": null
  },
  {
    "No": "31",
    "name": "雨飾山",
    "latitude": "36.9019444",
    "longitude": "137.9625",
    "yomi": "あまかざりやま",
    "elevation": "1963",
    "prefecture": "新潟県・長野県",
    "region": "上信越",
    "remarks": null
  },
  {
    "No": "32",
    "name": "苗場山",
    "latitude": "36.8458333",
    "longitude": "138.6902777",
    "yomi": "なえばさん",
    "elevation": "2145",
    "prefecture": "新潟県・長野県",
    "region": "上信越",
    "remarks": null
  },
  {
    "No": "33",
    "name": "妙高山",
    "latitude": "36.8913888",
    "longitude": "138.1136111",
    "yomi": "みょうこうさん",
    "elevation": "2454",
    "prefecture": "新潟県",
    "region": "上信越",
    "remarks": null
  },
  {
    "No": "34",
    "name": "火打山",
    "latitude": "36.9227777",
    "longitude": "138.0680555",
    "yomi": "ひうちやま",
    "elevation": "2462",
    "prefecture": "新潟県",
    "region": "上信越",
    "remarks": null
  },
  {
    "No": "35",
    "name": "高妻山",
    "latitude": "36.8",
    "longitude": "138.0519444",
    "yomi": "たかつまやま",
    "elevation": "2353",
    "prefecture": "新潟県・長野県",
    "region": "上信越",
    "remarks": null
  },
  {
    "No": "36",
    "name": "男体山",
    "latitude": "36.765",
    "longitude": "139.4908333",
    "yomi": "なんたいさん",
    "elevation": "2486",
    "prefecture": "栃木県",
    "region": "北関東",
    "remarks": null
  },
  {
    "No": "37",
    "name": "白根山（日光白根山）",
    "latitude": "36.7986111",
    "longitude": "139.3758333",
    "yomi": "しらねさん（にっこうしらねさん）",
    "elevation": "2578",
    "prefecture": "群馬県･栃木県",
    "region": "北関東",
    "remarks": null
  },
  {
    "No": "38",
    "name": "皇海山",
    "latitude": "36.69",
    "longitude": "139.3369444",
    "yomi": "すかいさん",
    "elevation": "2144",
    "prefecture": "栃木県・群馬県",
    "region": "北関東",
    "remarks": null
  },
  {
    "No": "39",
    "name": "武尊山",
    "latitude": "36.8052777",
    "longitude": "139.1325",
    "yomi": "ほたかやま",
    "elevation": "2158",
    "prefecture": "群馬県",
    "region": "北関東",
    "remarks": null
  },
  {
    "No": "40",
    "name": "赤城山（黒?山）",
    "latitude": "36.5602777",
    "longitude": "139.1933333",
    "yomi": "あかぎさん（くろびさん）",
    "elevation": "1828",
    "prefecture": "群馬県",
    "region": "北関東",
    "remarks": null
  },
  {
    "No": "41",
    "name": "本白根山（草津白根山）",
    "latitude": "36.6227777",
    "longitude": "138.5319444",
    "yomi": "ほんしらねさん（くさつしらねさん）",
    "elevation": "2171",
    "prefecture": "群馬県",
    "region": "北関東",
    "remarks": null
  },
  {
    "No": "42",
    "name": "四阿山",
    "latitude": "36.5416666",
    "longitude": "138.4130555",
    "yomi": "あずまやさん",
    "elevation": "2354",
    "prefecture": "長野県･群馬県",
    "region": "北関東",
    "remarks": null
  },
  {
    "No": "43",
    "name": "浅間山",
    "latitude": "36.4063888",
    "longitude": "138.5230555",
    "yomi": "あさまやま",
    "elevation": "2568",
    "prefecture": "群馬県･長野県",
    "region": "北関東",
    "remarks": null
  },
  {
    "No": "44",
    "name": "筑波山",
    "latitude": "36.2252777",
    "longitude": "140.1066666",
    "yomi": "つくばさん",
    "elevation": "877",
    "prefecture": "茨城県",
    "region": "北関東",
    "remarks": null
  },
  {
    "No": "45",
    "name": "白馬岳",
    "latitude": "36.7586111",
    "longitude": "137.7586111",
    "yomi": "しろうまだけ",
    "elevation": "2932",
    "prefecture": "富山県･長野県",
    "region": "北アルプス",
    "remarks": null
  },
  {
    "No": "46",
    "name": "五龍岳",
    "latitude": "36.6583333",
    "longitude": "137.7527777",
    "yomi": "ごりゅうだけ",
    "elevation": "2814",
    "prefecture": "富山県",
    "region": "北アルプス",
    "remarks": null
  },
  {
    "No": "47",
    "name": "鹿島槍ヶ岳",
    "latitude": "36.6244444",
    "longitude": "137.7469444",
    "yomi": "かしまやりがたけ",
    "elevation": "2889",
    "prefecture": "富山県･長野県",
    "region": "北アルプス",
    "remarks": null
  },
  {
    "No": "48",
    "name": "剱岳",
    "latitude": "36.6233333",
    "longitude": "137.6169444",
    "yomi": "つるぎだけ",
    "elevation": "2999",
    "prefecture": "富山県",
    "region": "北アルプス",
    "remarks": null
  },
  {
    "No": "49",
    "name": "立山（大汝山）",
    "latitude": "36.5758333",
    "longitude": "137.6197222",
    "yomi": "たてやま（おおなんじやま）",
    "elevation": "3015",
    "prefecture": "富山県",
    "region": "北アルプス",
    "remarks": null
  },
  {
    "No": "50",
    "name": "薬師岳",
    "latitude": "36.4688888",
    "longitude": "137.5447222",
    "yomi": "やくしだけ",
    "elevation": "2926",
    "prefecture": "富山県",
    "region": "北アルプス",
    "remarks": null
  },
  {
    "No": "51",
    "name": "黒部五郎岳（中ノ俣岳）",
    "latitude": "36.3925",
    "longitude": "137.54",
    "yomi": "くろべごろうだけ（なかのまただけ）",
    "elevation": "2840",
    "prefecture": "富山県・岐阜県",
    "region": "北アルプス",
    "remarks": null
  },
  {
    "No": "52",
    "name": "水晶岳（黒岳）",
    "latitude": "36.4263888",
    "longitude": "137.6027777",
    "yomi": "すいしょうだけ（くろだけ）",
    "elevation": "2986",
    "prefecture": "富山県",
    "region": "北アルプス",
    "remarks": null
  },
  {
    "No": "53",
    "name": "鷲羽岳",
    "latitude": "36.4030555",
    "longitude": "137.6052777",
    "yomi": "わしばだけ",
    "elevation": "2924",
    "prefecture": "富山県･長野県",
    "region": "北アルプス",
    "remarks": null
  },
  {
    "No": "54",
    "name": "槍ヶ岳",
    "latitude": "36.3419444",
    "longitude": "137.6475",
    "yomi": "やりがたけ",
    "elevation": "3180",
    "prefecture": "長野県",
    "region": "北アルプス",
    "remarks": null
  },
  {
    "No": "55",
    "name": "穂高岳（奥穂高岳）",
    "latitude": "36.2891666",
    "longitude": "137.6480555",
    "yomi": "ほたかだけ（おくほたかだけ）",
    "elevation": "3190",
    "prefecture": "長野県･岐阜県",
    "region": "北アルプス",
    "remarks": null
  },
  {
    "No": "56",
    "name": "常念岳",
    "latitude": "36.3255555",
    "longitude": "137.7275",
    "yomi": "じょうねんだけ",
    "elevation": "2857",
    "prefecture": "長野県",
    "region": "北アルプス",
    "remarks": null
  },
  {
    "No": "57",
    "name": "笠ヶ岳",
    "latitude": "36.3155555",
    "longitude": "137.5502777",
    "yomi": "かさがだけ",
    "elevation": "2898",
    "prefecture": "岐阜県",
    "region": "北アルプス",
    "remarks": "H26年標高変更"
  },
  {
    "No": "58",
    "name": "焼岳",
    "latitude": "36.2269444",
    "longitude": "137.5869444",
    "yomi": "やけだけ",
    "elevation": "2455",
    "prefecture": "長野県･岐阜県",
    "region": "北アルプス",
    "remarks": null
  },
  {
    "No": "59",
    "name": "乗鞍岳（剣ヶ峰）",
    "latitude": "36.1063888",
    "longitude": "137.5536111",
    "yomi": "のりくらだけ（けんがみね）",
    "elevation": "3026",
    "prefecture": "岐阜県･長野県",
    "region": "北アルプス",
    "remarks": null
  },
  {
    "No": "60",
    "name": "御嶽山（剣ヶ峰）",
    "latitude": "35.8927777",
    "longitude": "137.4802777",
    "yomi": "おんたけさん（けんがみね）",
    "elevation": "3067",
    "prefecture": "長野県",
    "region": "八ヶ岳・中央アルプス",
    "remarks": null
  },
  {
    "No": "61",
    "name": "美ヶ原（王ヶ頭）",
    "latitude": "36.2258333",
    "longitude": "138.1075",
    "yomi": "うつくしがはら（おうがとう）",
    "elevation": "2034",
    "prefecture": "長野県",
    "region": "八ヶ岳・中央アルプス",
    "remarks": null
  },
  {
    "No": "62",
    "name": "霧ヶ峰（車山）",
    "latitude": "36.1030555",
    "longitude": "138.1966666",
    "yomi": "きりがみね（くるまやま）",
    "elevation": "1925",
    "prefecture": "長野県",
    "region": "八ヶ岳・中央アルプス",
    "remarks": null
  },
  {
    "No": "63",
    "name": "蓼科山",
    "latitude": "36.1036111",
    "longitude": "138.295",
    "yomi": "たてしなやま",
    "elevation": "2531",
    "prefecture": "長野県",
    "region": "八ヶ岳・中央アルプス",
    "remarks": "H26年標高変更"
  },
  {
    "No": "64",
    "name": "八ヶ岳（赤岳）",
    "latitude": "35.9708333",
    "longitude": "138.37",
    "yomi": "やつがだけ（あかだけ）",
    "elevation": "2899",
    "prefecture": "長野県・山梨県",
    "region": "八ヶ岳・中央アルプス",
    "remarks": null
  },
  {
    "No": "65",
    "name": "両神山",
    "latitude": "36.0233333",
    "longitude": "138.8413888",
    "yomi": "りょうかみさん",
    "elevation": "1723",
    "prefecture": "埼玉県",
    "region": "秩父･多摩･南関東",
    "remarks": null
  },
  {
    "No": "66",
    "name": "雲取山",
    "latitude": "35.8555555",
    "longitude": "138.9438888",
    "yomi": "くもとりやま",
    "elevation": "2017",
    "prefecture": "埼玉県・東京都",
    "region": "秩父･多摩･南関東",
    "remarks": null
  },
  {
    "No": "67",
    "name": "甲武信ヶ岳",
    "latitude": "35.9088888",
    "longitude": "138.7288888",
    "yomi": "こぶしがたけ",
    "elevation": "2475",
    "prefecture": "埼玉県･山梨県",
    "region": "秩父･多摩･南関東",
    "remarks": null
  },
  {
    "No": "68",
    "name": "金峰山",
    "latitude": "35.8713888",
    "longitude": "138.6252777",
    "yomi": "きんぷさん",
    "elevation": "2599",
    "prefecture": "山梨県･長野県",
    "region": "秩父･多摩･南関東",
    "remarks": null
  },
  {
    "No": "69",
    "name": "瑞牆山",
    "latitude": "35.8933333",
    "longitude": "138.5919444",
    "yomi": "みずがきやま",
    "elevation": "2230",
    "prefecture": "山梨県",
    "region": "秩父･多摩･南関東",
    "remarks": null
  },
  {
    "No": "70",
    "name": "大菩薩嶺",
    "latitude": "35.7488888",
    "longitude": "138.8455555",
    "yomi": "だいぼさつれい",
    "elevation": "2057",
    "prefecture": "山梨県",
    "region": "秩父･多摩･南関東",
    "remarks": null
  },
  {
    "No": "71",
    "name": "丹沢山（蛭ヶ岳）",
    "latitude": "35.4863888",
    "longitude": "139.1388888",
    "yomi": "たんざわさん（ひるがたけ）",
    "elevation": "1673",
    "prefecture": "神奈川県",
    "region": "秩父･多摩･南関東",
    "remarks": null
  },
  {
    "No": "72",
    "name": "富士山（剣ヶ峰）",
    "latitude": "35.3608333",
    "longitude": "138.7275",
    "yomi": "ふじさん（けんがみね）",
    "elevation": "3776",
    "prefecture": "山梨県･静岡県",
    "region": "秩父･多摩･南関東",
    "remarks": null
  },
  {
    "No": "73",
    "name": "天城山（万三郎岳）",
    "latitude": "34.8627777",
    "longitude": "139.0016666",
    "yomi": "あまぎざん（ばんざぶろうだけ）",
    "elevation": "1406",
    "prefecture": "静岡県",
    "region": "秩父･多摩･南関東",
    "remarks": "H26年標高変更"
  },
  {
    "No": "74",
    "name": "駒ヶ岳（木曽駒ヶ岳）",
    "latitude": "35.7894444",
    "longitude": "137.8044444",
    "yomi": "こまがたけ（きそこまがたけ）",
    "elevation": "2956",
    "prefecture": "長野県",
    "region": "八ヶ岳・中央アルプス",
    "remarks": null
  },
  {
    "No": "75",
    "name": "空木岳",
    "latitude": "35.7188888",
    "longitude": "137.8172222",
    "yomi": "うつぎだけ",
    "elevation": "2864",
    "prefecture": "長野県",
    "region": "八ヶ岳・中央アルプス",
    "remarks": null
  },
  {
    "No": "76",
    "name": "恵那山",
    "latitude": "35.4436111",
    "longitude": "137.5972222",
    "yomi": "えなさん",
    "elevation": "2191",
    "prefecture": "長野県・岐阜県",
    "region": "八ヶ岳・中央アルプス",
    "remarks": null
  },
  {
    "No": "77",
    "name": "駒ヶ岳（甲斐駒ヶ岳）",
    "latitude": "35.7580555",
    "longitude": "138.2366666",
    "yomi": "こまがたけ（かいこまがたけ）",
    "elevation": "2967",
    "prefecture": "山梨県･長野県",
    "region": "南アルプス",
    "remarks": null
  },
  {
    "No": "78",
    "name": "仙丈ヶ岳",
    "latitude": "35.72",
    "longitude": "138.1836111",
    "yomi": "せんじょうがたけ",
    "elevation": "3033",
    "prefecture": "山梨県･長野県",
    "region": "南アルプス",
    "remarks": null
  },
  {
    "No": "79",
    "name": "鳳凰山（観音ヶ岳）",
    "latitude": "35.7016666",
    "longitude": "138.3047222",
    "yomi": "ほうおうざん（かんのんがだけ）",
    "elevation": "2841",
    "prefecture": "山梨県",
    "region": "南アルプス",
    "remarks": "H26年標高変更"
  },
  {
    "No": "80",
    "name": "北岳",
    "latitude": "35.6744444",
    "longitude": "138.2388888",
    "yomi": "きただけ",
    "elevation": "3193",
    "prefecture": "山梨県",
    "region": "南アルプス",
    "remarks": null
  },
  {
    "No": "81",
    "name": "間ノ岳",
    "latitude": "35.6461111",
    "longitude": "138.2283333",
    "yomi": "あいのだけ",
    "elevation": "3190",
    "prefecture": "山梨県･静岡県",
    "region": "南アルプス",
    "remarks": "H26年標高変更"
  },
  {
    "No": "82",
    "name": "塩見岳",
    "latitude": "35.5738888",
    "longitude": "138.1830555",
    "yomi": "しおみだけ",
    "elevation": "3047",
    "prefecture": "長野県･静岡県",
    "region": "南アルプス",
    "remarks": null
  },
  {
    "No": "83",
    "name": "悪沢岳（東岳）",
    "latitude": "35.5008333",
    "longitude": "138.1825",
    "yomi": "わるさわだけ（ひがしだけ）",
    "elevation": "3141",
    "prefecture": "静岡県",
    "region": "南アルプス",
    "remarks": null
  },
  {
    "No": "84",
    "name": "赤石岳",
    "latitude": "35.4611111",
    "longitude": "138.1572222",
    "yomi": "あかいしだけ",
    "elevation": "3121",
    "prefecture": "長野県･静岡県",
    "region": "南アルプス",
    "remarks": "H26年標高変更"
  },
  {
    "No": "85",
    "name": "聖岳（前聖岳）",
    "latitude": "35.4227777",
    "longitude": "138.1397222",
    "yomi": "ひじりだけ（まえひじりだけ）",
    "elevation": "3013",
    "prefecture": "長野県･静岡県",
    "region": "南アルプス",
    "remarks": null
  },
  {
    "No": "86",
    "name": "光岳",
    "latitude": "35.3380555",
    "longitude": "138.0838888",
    "yomi": "てかりだけ",
    "elevation": "2592",
    "prefecture": "静岡県・長野県",
    "region": "南アルプス",
    "remarks": "H26年標高変更"
  },
  {
    "No": "87",
    "name": "白山（御前峰）",
    "latitude": "36.155",
    "longitude": "136.7713888",
    "yomi": "はくさん（ごぜんがみね）",
    "elevation": "2702",
    "prefecture": "石川県･岐阜県",
    "region": "近畿･北陸・中四国",
    "remarks": null
  },
  {
    "No": "88",
    "name": "荒島岳",
    "latitude": "35.9341666",
    "longitude": "136.6013888",
    "yomi": "あらしまだけ",
    "elevation": "1523",
    "prefecture": "福井県",
    "region": "近畿･北陸・中四国",
    "remarks": null
  },
  {
    "No": "89",
    "name": "伊吹山",
    "latitude": "35.4177777",
    "longitude": "136.4063888",
    "yomi": "いぶきやま",
    "elevation": "1377",
    "prefecture": "滋賀県",
    "region": "近畿･北陸・中四国",
    "remarks": null
  },
  {
    "No": "90",
    "name": "大台ヶ原山（日出ヶ岳）",
    "latitude": "34.1852777",
    "longitude": "136.1091666",
    "yomi": "おおだいがはらざん（ひのでがたけ）",
    "elevation": "1695",
    "prefecture": "奈良県･三重県",
    "region": "近畿･北陸・中四国",
    "remarks": null
  },
  {
    "No": "91",
    "name": "大峰山（八経ヶ岳）",
    "latitude": "34.1736111",
    "longitude": "135.9075",
    "yomi": "おおみねさん（はっきょうがたけ）",
    "elevation": "1915",
    "prefecture": "奈良県",
    "region": "近畿･北陸・中四国",
    "remarks": null
  },
  {
    "No": "92",
    "name": "大山（剣ヶ峰）",
    "latitude": "35.3711111",
    "longitude": "133.5461111",
    "yomi": "だいせん（けんがみね）",
    "elevation": "1729",
    "prefecture": "鳥取県",
    "region": "近畿･北陸・中四国",
    "remarks": null
  },
  {
    "No": "93",
    "name": "剣山",
    "latitude": "33.8536111",
    "longitude": "134.0941666",
    "yomi": "つるぎさん",
    "elevation": "1955",
    "prefecture": "徳島県",
    "region": "近畿･北陸・中四国",
    "remarks": null
  },
  {
    "No": "94",
    "name": "石鎚山（天狗岳）",
    "latitude": "33.7677777",
    "longitude": "133.115",
    "yomi": "いしづちさん（てんぐだけ）",
    "elevation": "1982",
    "prefecture": "愛媛県",
    "region": "近畿･北陸・中四国",
    "remarks": null
  },
  {
    "No": "95",
    "name": "くじゅう連山（久住山）",
    "latitude": "33.0822222",
    "longitude": "131.2408333",
    "yomi": "くじゅうれんざん（くじゅうさん）",
    "elevation": "1787",
    "prefecture": "大分県",
    "region": "九州",
    "remarks": null
  },
  {
    "No": "96",
    "name": "祖母山",
    "latitude": "32.8280555",
    "longitude": "131.3469444",
    "yomi": "そぼさん",
    "elevation": "1756",
    "prefecture": "大分県・宮崎県",
    "region": "九州",
    "remarks": null
  },
  {
    "No": "97",
    "name": "阿蘇山（高岳）",
    "latitude": "32.8844444",
    "longitude": "131.1038888",
    "yomi": "あそさん（たかだけ）",
    "elevation": "1592",
    "prefecture": "熊本県",
    "region": "九州",
    "remarks": null
  },
  {
    "No": "98",
    "name": "霧島山（韓国岳）",
    "latitude": "31.9341666",
    "longitude": "130.8616666",
    "yomi": "きりしまやま（からくにだけ）",
    "elevation": "1700",
    "prefecture": "宮崎県･鹿児島県",
    "region": "九州",
    "remarks": null
  },
  {
    "No": "99",
    "name": "開聞岳",
    "latitude": "31.18",
    "longitude": "130.5283333",
    "yomi": "かいもんだけ",
    "elevation": "924",
    "prefecture": "鹿児島県",
    "region": "九州",
    "remarks": null
  },
  {
    "No": "100",
    "name": "宮之浦岳",
    "latitude": "30.3361111",
    "longitude": "130.5041666",
    "yomi": "みやのうらだけ",
    "elevation": "1936",
    "prefecture": "鹿児島県",
    "region": "九州",
    "remarks": null
  },
  {
    "No": "101",
    "name": "天塩岳",
    "latitude": "43.9644444",
    "longitude": "142.8880555",
    "yomi": "てしおだけ",
    "elevation": "1558",
    "prefecture": "北海道",
    "region": "北海道",
    "remarks": null
  },
  {
    "No": "102",
    "name": "石狩岳",
    "latitude": "43.5466666",
    "longitude": "143.0222222",
    "yomi": "いしかりだけ",
    "elevation": "1967",
    "prefecture": "北海道",
    "region": "北海道",
    "remarks": null
  },
  {
    "No": "103",
    "name": "ニペソツ山",
    "latitude": "43.4558333",
    "longitude": "143.0322222",
    "yomi": "にぺそつやま",
    "elevation": "2013",
    "prefecture": "北海道",
    "region": "北海道",
    "remarks": null
  },
  {
    "No": "104",
    "name": "カムイエクウチカウシ山",
    "latitude": "42.625",
    "longitude": "142.7663888",
    "yomi": "かむいえくうちかうしやま",
    "elevation": "1979",
    "prefecture": "北海道",
    "region": "北海道",
    "remarks": "H26年標高変更"
  },
  {
    "No": "105",
    "name": "ペテガリ岳",
    "latitude": "42.4994444",
    "longitude": "142.8711111",
    "yomi": "ぺてがりだけ",
    "elevation": "1736",
    "prefecture": "北海道",
    "region": "北海道",
    "remarks": null
  },
  {
    "No": "106",
    "name": "芦別岳",
    "latitude": "43.2358333",
    "longitude": "142.2836111",
    "yomi": "あしべつだけ",
    "elevation": "1726",
    "prefecture": "北海道",
    "region": "北海道",
    "remarks": null
  },
  {
    "No": "107",
    "name": "夕張岳",
    "latitude": "43.0997222",
    "longitude": "142.2511111",
    "yomi": "ゆうばりだけ",
    "elevation": "1668",
    "prefecture": "北海道",
    "region": "北海道",
    "remarks": null
  },
  {
    "No": "108",
    "name": "署寒別岳",
    "latitude": "43.7158333",
    "longitude": "141.5230555",
    "yomi": "しょかんべつだけ",
    "elevation": "1492",
    "prefecture": "北海道",
    "region": "北海道",
    "remarks": null
  },
  {
    "No": "109",
    "name": "樽前山",
    "latitude": "42.6905555",
    "longitude": "141.3766666",
    "yomi": "たるまえさん",
    "elevation": "1041",
    "prefecture": "北海道",
    "region": "北海道",
    "remarks": null
  },
  {
    "No": "110",
    "name": "駒ヶ岳（剣ヶ峰）",
    "latitude": "42.0633333",
    "longitude": "140.6772222",
    "yomi": "こまがたけ（けんがみね）",
    "elevation": "1131",
    "prefecture": "北海道",
    "region": "北海道",
    "remarks": null
  },
  {
    "No": "111",
    "name": "白神岳",
    "latitude": "40.5075",
    "longitude": "140.0183333",
    "yomi": "しらかみだけ",
    "elevation": "1235",
    "prefecture": "青森県",
    "region": "東北",
    "remarks": null
  },
  {
    "No": "112",
    "name": "姫神山",
    "latitude": "39.8441666",
    "longitude": "141.2469444",
    "yomi": "ひめかみやま",
    "elevation": "1124",
    "prefecture": "岩手県",
    "region": "東北",
    "remarks": null
  },
  {
    "No": "113",
    "name": "秋田駒ヶ岳（男女岳）",
    "latitude": "39.7611111",
    "longitude": "140.7994444",
    "yomi": "あきたこまがたけ（おなめだけ）",
    "elevation": "1637",
    "prefecture": "秋田県",
    "region": "東北",
    "remarks": null
  },
  {
    "No": "114",
    "name": "森吉山",
    "latitude": "39.9766666",
    "longitude": "140.5441666",
    "yomi": "もりよしざん",
    "elevation": "1454",
    "prefecture": "秋田県",
    "region": "東北",
    "remarks": null
  },
  {
    "No": "115",
    "name": "和賀岳",
    "latitude": "39.5702777",
    "longitude": "140.7541666",
    "yomi": "わがだけ",
    "elevation": "1439",
    "prefecture": "岩手県・秋田県",
    "region": "東北",
    "remarks": "H26年標高変更"
  },
  {
    "No": "116",
    "name": "焼石岳",
    "latitude": "39.1636111",
    "longitude": "140.8288888",
    "yomi": "やけいしだけ",
    "elevation": "1547",
    "prefecture": "岩手県",
    "region": "東北",
    "remarks": "H23年標高変更"
  },
  {
    "No": "117",
    "name": "栗駒山",
    "latitude": "38.9608333",
    "longitude": "140.7883333",
    "yomi": "くりこまやま",
    "elevation": "1626",
    "prefecture": "岩手県・宮城県",
    "region": "東北",
    "remarks": "H26年標高変更"
  },
  {
    "No": "118",
    "name": "神室山",
    "latitude": "38.9022222",
    "longitude": "140.4922222",
    "yomi": "かむろさん",
    "elevation": "1365",
    "prefecture": "秋田県･山形県",
    "region": "東北",
    "remarks": null
  },
  {
    "No": "119",
    "name": "以東岳",
    "latitude": "38.3430555",
    "longitude": "139.8491666",
    "yomi": "いとうだけ",
    "elevation": "1772",
    "prefecture": "山形県・新潟県",
    "region": "東北",
    "remarks": "H22年標高変更"
  },
  {
    "No": "120",
    "name": "船形山（御所山）",
    "latitude": "38.4555555",
    "longitude": "140.6197222",
    "yomi": "ふながたやま（ごしょざん）",
    "elevation": "1500",
    "prefecture": "宮城県・山形県",
    "region": "東北",
    "remarks": null
  },
  {
    "No": "121",
    "name": "杁差岳",
    "latitude": "37.9425",
    "longitude": "139.6088888",
    "yomi": "えぶりさしだけ",
    "elevation": "1636",
    "prefecture": "新潟県",
    "region": "東北",
    "remarks": null
  },
  {
    "No": "122",
    "name": "二王子岳",
    "latitude": "37.8997222",
    "longitude": "139.4991666",
    "yomi": "にのうじだけ",
    "elevation": "1420",
    "prefecture": "新潟県",
    "region": "東北",
    "remarks": null
  },
  {
    "No": "123",
    "name": "御神楽岳",
    "latitude": "37.5219444",
    "longitude": "139.4258333",
    "yomi": "みかぐらだけ",
    "elevation": "1386",
    "prefecture": "新潟県",
    "region": "上信越",
    "remarks": null
  },
  {
    "No": "124",
    "name": "守門岳",
    "latitude": "37.3977777",
    "longitude": "139.1366666",
    "yomi": "すもんだけ",
    "elevation": "1537",
    "prefecture": "新潟県",
    "region": "上信越",
    "remarks": null
  },
  {
    "No": "125",
    "name": "会津朝日岳",
    "latitude": "37.2211111",
    "longitude": "139.3397222",
    "yomi": "あいづあさひだけ",
    "elevation": "1624",
    "prefecture": "福島県",
    "region": "上信越",
    "remarks": null
  },
  {
    "No": "126",
    "name": "八海山（入道岳）",
    "latitude": "37.1038888",
    "longitude": "139.0247222",
    "yomi": "はっかいさん（にゅうどうだけ）",
    "elevation": "1778",
    "prefecture": "新潟県",
    "region": "上信越",
    "remarks": null
  },
  {
    "No": "127",
    "name": "中ノ岳",
    "latitude": "37.0852777",
    "longitude": "139.0775",
    "yomi": "なかのだけ",
    "elevation": "2085",
    "prefecture": "新潟県",
    "region": "上信越",
    "remarks": null
  },
  {
    "No": "128",
    "name": "荒沢岳",
    "latitude": "37.1005555",
    "longitude": "139.1480555",
    "yomi": "あらさわだけ",
    "elevation": "1969",
    "prefecture": "新潟県",
    "region": "上信越",
    "remarks": null
  },
  {
    "No": "129",
    "name": "鳥甲山",
    "latitude": "36.8391666",
    "longitude": "138.5838888",
    "yomi": "とりかぶとやま",
    "elevation": "2038",
    "prefecture": "長野県",
    "region": "上信越",
    "remarks": null
  },
  {
    "No": "130",
    "name": "佐武流山",
    "latitude": "36.7722222",
    "longitude": "138.6705555",
    "yomi": "さぶりゅうやま",
    "elevation": "2192",
    "prefecture": "新潟県・長野県",
    "region": "上信越",
    "remarks": null
  },
  {
    "No": "131",
    "name": "白砂山",
    "latitude": "36.7380555",
    "longitude": "138.6933333",
    "yomi": "しらすなやま",
    "elevation": "2140",
    "prefecture": "群馬県・長野県",
    "region": "上信越",
    "remarks": null
  },
  {
    "No": "132",
    "name": "岩菅山",
    "latitude": "36.7419444",
    "longitude": "138.5594444",
    "yomi": "いわすげやま",
    "elevation": "2295",
    "prefecture": "長野県",
    "region": "上信越",
    "remarks": null
  },
  {
    "No": "133",
    "name": "仙ノ倉山",
    "latitude": "36.8175",
    "longitude": "138.8394444",
    "yomi": "せんのくらやま",
    "elevation": "2026",
    "prefecture": "群馬県・新潟県",
    "region": "上信越",
    "remarks": null
  },
  {
    "No": "134",
    "name": "帝釈山",
    "latitude": "36.9697222",
    "longitude": "139.46",
    "yomi": "たいしゃくざん",
    "elevation": "2060",
    "prefecture": "福島県・栃木県",
    "region": "上信越",
    "remarks": null
  },
  {
    "No": "135",
    "name": "女峰山",
    "latitude": "36.8113888",
    "longitude": "139.5363888",
    "yomi": "にょほうさん",
    "elevation": "2483",
    "prefecture": "栃木県",
    "region": "上信越",
    "remarks": null
  },
  {
    "No": "136",
    "name": "浅間隠山",
    "latitude": "36.4536111",
    "longitude": "138.6525",
    "yomi": "あさまかくしやま",
    "elevation": "1757",
    "prefecture": "群馬県",
    "region": "関東",
    "remarks": null
  },
  {
    "No": "137",
    "name": "榛名山（相馬山）",
    "latitude": "36.4744444",
    "longitude": "138.9005555",
    "yomi": "はるなさん",
    "elevation": "1411",
    "prefecture": "群馬県",
    "region": "関東",
    "remarks": null
  },
  {
    "No": "138",
    "name": "妙義山（相馬岳）",
    "latitude": "36.2986111",
    "longitude": "138.7488888",
    "yomi": "みょうぎさん（そうまだけ）",
    "elevation": "1104",
    "prefecture": "群馬県",
    "region": "関東",
    "remarks": null
  },
  {
    "No": "139",
    "name": "荒船山",
    "latitude": "36.2038888",
    "longitude": "138.6372222",
    "yomi": "あらふねやま",
    "elevation": "1423",
    "prefecture": "群馬県・長野県",
    "region": "関東",
    "remarks": null
  },
  {
    "No": "140",
    "name": "御座山",
    "latitude": "36.0338888",
    "longitude": "138.6066666",
    "yomi": "おぐらさん",
    "elevation": "2112",
    "prefecture": "長野県",
    "region": "関東",
    "remarks": null
  },
  {
    "No": "141",
    "name": "武甲山",
    "latitude": "35.9516666",
    "longitude": "139.0977777",
    "yomi": "ぶこうさん",
    "elevation": "1304",
    "prefecture": "埼玉県",
    "region": "関東",
    "remarks": null
  },
  {
    "No": "142",
    "name": "白石山（和名倉山）",
    "latitude": "35.8994444",
    "longitude": "138.8780555",
    "yomi": "しろいしやま（わなぐらやま）",
    "elevation": "2036",
    "prefecture": "埼玉県",
    "region": "関東",
    "remarks": null
  },
  {
    "No": "143",
    "name": "茅ヶ岳",
    "latitude": "35.795",
    "longitude": "138.5138888",
    "yomi": "かやがたけ",
    "elevation": "1704",
    "prefecture": "山梨県",
    "region": "関東",
    "remarks": null
  },
  {
    "No": "144",
    "name": "乾徳山",
    "latitude": "35.8230555",
    "longitude": "138.715",
    "yomi": "けんとくさん",
    "elevation": "2031",
    "prefecture": "山梨県",
    "region": "関東",
    "remarks": null
  },
  {
    "No": "145",
    "name": "大岳山",
    "latitude": "35.7652777",
    "longitude": "139.1302777",
    "yomi": "おおだけさん",
    "elevation": "1266",
    "prefecture": "東京都",
    "region": "関東",
    "remarks": null
  },
  {
    "No": "146",
    "name": "三ツ峠山",
    "latitude": "35.5491666",
    "longitude": "138.8091666",
    "yomi": "みつとうげやま",
    "elevation": "1785",
    "prefecture": "山梨県",
    "region": "関東",
    "remarks": null
  },
  {
    "No": "147",
    "name": "御正体山",
    "latitude": "35.4869444",
    "longitude": "138.9316666",
    "yomi": "みしょうたいやま",
    "elevation": "1681",
    "prefecture": "山梨県",
    "region": "関東",
    "remarks": "H26年標高変更"
  },
  {
    "No": "148",
    "name": "毛無山",
    "latitude": "35.4158333",
    "longitude": "138.5438888",
    "yomi": "けなしさん",
    "elevation": "1964",
    "prefecture": "山梨県・静岡県",
    "region": "関東",
    "remarks": null
  },
  {
    "No": "149",
    "name": "愛鷹山（越前岳）",
    "latitude": "35.2380555",
    "longitude": "138.7938888",
    "yomi": "あしたかやま（えちぜんだけ）",
    "elevation": "1504",
    "prefecture": "静岡県",
    "region": "関東",
    "remarks": null
  },
  {
    "No": "150",
    "name": "天狗岳",
    "latitude": "36.0191666",
    "longitude": "138.3555555",
    "yomi": "てんぐだけ",
    "elevation": "2646",
    "prefecture": "長野県",
    "region": "関東",
    "remarks": null
  },
  {
    "No": "151",
    "name": "雪倉岳",
    "latitude": "36.7947222",
    "longitude": "137.7541666",
    "yomi": "ゆきくらだけ",
    "elevation": "2611",
    "prefecture": "新潟県・富山県",
    "region": "北アルプス・北信",
    "remarks": null
  },
  {
    "No": "152",
    "name": "針ノ木岳",
    "latitude": "36.5380555",
    "longitude": "137.6844444",
    "yomi": "はりのきだけ",
    "elevation": "2821",
    "prefecture": "富山県・長野県",
    "region": "北アルプス・北信",
    "remarks": null
  },
  {
    "No": "153",
    "name": "烏帽子岳",
    "latitude": "36.4794444",
    "longitude": "137.6508333",
    "yomi": "えぼしだけ",
    "elevation": "2628",
    "prefecture": "富山県・長野県",
    "region": "北アルプス・北信",
    "remarks": null
  },
  {
    "No": "154",
    "name": "赤牛岳",
    "latitude": "36.4616666",
    "longitude": "137.6033333",
    "yomi": "あかうしだけ",
    "elevation": "2864",
    "prefecture": "富山県",
    "region": "北アルプス・北信",
    "remarks": null
  },
  {
    "No": "155",
    "name": "毛勝山",
    "latitude": "36.7011111",
    "longitude": "137.5908333",
    "yomi": "けかつやま",
    "elevation": "2415",
    "prefecture": "富山県",
    "region": "北アルプス・北信",
    "remarks": "H26年標高変更"
  },
  {
    "No": "156",
    "name": "奥大日岳",
    "latitude": "36.5983333",
    "longitude": "137.5808333",
    "yomi": "おくだいにちだけ",
    "elevation": "2611",
    "prefecture": "富山県",
    "region": "北アルプス・北信",
    "remarks": null
  },
  {
    "No": "157",
    "name": "有明山",
    "latitude": "36.3911111",
    "longitude": "137.7705555",
    "yomi": "ありあけやま",
    "elevation": "2268",
    "prefecture": "長野県",
    "region": "北アルプス・北信",
    "remarks": null
  },
  {
    "No": "158",
    "name": "餓鬼岳",
    "latitude": "36.4472222",
    "longitude": "137.7361111",
    "yomi": "がきだけ",
    "elevation": "2647",
    "prefecture": "長野県",
    "region": "北アルプス・北信",
    "remarks": null
  },
  {
    "No": "159",
    "name": "燕岳",
    "latitude": "36.4069444",
    "longitude": "137.7127777",
    "yomi": "つばくろだけ",
    "elevation": "2763",
    "prefecture": "長野県",
    "region": "北アルプス・北信",
    "remarks": null
  },
  {
    "No": "160",
    "name": "大天井岳",
    "latitude": "36.365",
    "longitude": "137.7011111",
    "yomi": "だいてんじょうだけ",
    "elevation": "2922",
    "prefecture": "長野県",
    "region": "北アルプス・北信",
    "remarks": null
  },
  {
    "No": "161",
    "name": "霞沢岳",
    "latitude": "36.2211111",
    "longitude": "137.6405555",
    "yomi": "かすみざわだけ",
    "elevation": "2646",
    "prefecture": "長野県",
    "region": "北アルプス・北信",
    "remarks": null
  },
  {
    "No": "162",
    "name": "黒姫山",
    "latitude": "36.8133333",
    "longitude": "138.1272222",
    "yomi": "くろひめやま",
    "elevation": "2053",
    "prefecture": "長野県",
    "region": "北アルプス・北信",
    "remarks": null
  },
  {
    "No": "163",
    "name": "戸隠山",
    "latitude": "36.7702777",
    "longitude": "138.055",
    "yomi": "とがくしやま",
    "elevation": "1904",
    "prefecture": "長野県",
    "region": "北アルプス・北信",
    "remarks": null
  },
  {
    "No": "164",
    "name": "飯縄山",
    "latitude": "36.7394444",
    "longitude": "138.1336111",
    "yomi": "いいづなやま",
    "elevation": "1917",
    "prefecture": "長野県",
    "region": "北アルプス・北信",
    "remarks": null
  },
  {
    "No": "165",
    "name": "鋸岳",
    "latitude": "35.7788888",
    "longitude": "138.21",
    "yomi": "のこぎりだけ",
    "elevation": "2685",
    "prefecture": "山梨県･長野県",
    "region": "南･中央アルプス",
    "remarks": null
  },
  {
    "No": "166",
    "name": "農鳥岳",
    "latitude": "35.6211111",
    "longitude": "138.2369444",
    "yomi": "のうとりだけ",
    "elevation": "3026",
    "prefecture": "山梨県・静岡県",
    "region": "南･中央アルプス",
    "remarks": null
  },
  {
    "No": "167",
    "name": "上河内岳",
    "latitude": "35.3897222",
    "longitude": "138.1527777",
    "yomi": "かみこうちだけ",
    "elevation": "2803",
    "prefecture": "長野県・静岡県",
    "region": "南･中央アルプス",
    "remarks": null
  },
  {
    "No": "168",
    "name": "池口岳",
    "latitude": "35.3302777",
    "longitude": "138.0383333",
    "yomi": "いけぐちだけ",
    "elevation": "2392",
    "prefecture": "長野県・静岡県",
    "region": "南･中央アルプス",
    "remarks": null
  },
  {
    "No": "169",
    "name": "大無間山",
    "latitude": "35.2561111",
    "longitude": "138.1616666",
    "yomi": "だいむげんざん",
    "elevation": "2330",
    "prefecture": "静岡県",
    "region": "南･中央アルプス",
    "remarks": "H26年標高変更"
  },
  {
    "No": "170",
    "name": "櫛形山",
    "latitude": "35.5866666",
    "longitude": "138.3691666",
    "yomi": "くしがたやま",
    "elevation": "2052",
    "prefecture": "山梨県",
    "region": "南･中央アルプス",
    "remarks": null
  },
  {
    "No": "171",
    "name": "笊ヶ岳",
    "latitude": "35.4241666",
    "longitude": "138.2594444",
    "yomi": "ざるがたけ",
    "elevation": "2629",
    "prefecture": "山梨県・静岡県",
    "region": "南･中央アルプス",
    "remarks": null
  },
  {
    "No": "172",
    "name": "七面山",
    "latitude": "35.3694444",
    "longitude": "138.3488888",
    "yomi": "しちめんざん",
    "elevation": "1989",
    "prefecture": "山梨県",
    "region": "南･中央アルプス",
    "remarks": null
  },
  {
    "No": "173",
    "name": "経ヶ岳",
    "latitude": "35.9127777",
    "longitude": "137.8625",
    "yomi": "きょうがたけ",
    "elevation": "2296",
    "prefecture": "長野県",
    "region": "南･中央アルプス",
    "remarks": null
  },
  {
    "No": "174",
    "name": "南駒ヶ岳",
    "latitude": "35.7013888",
    "longitude": "137.8108333",
    "yomi": "みなみこまがたけ",
    "elevation": "2841",
    "prefecture": "長野県",
    "region": "南･中央アルプス",
    "remarks": null
  },
  {
    "No": "175",
    "name": "安平路山",
    "latitude": "35.6305555",
    "longitude": "137.7744444",
    "yomi": "あんぺいじやま",
    "elevation": "2363",
    "prefecture": "長野県",
    "region": "南･中央アルプス",
    "remarks": null
  },
  {
    "No": "176",
    "name": "小秀山",
    "latitude": "35.7855555",
    "longitude": "137.3969444",
    "yomi": "こひでやま",
    "elevation": "1982",
    "prefecture": "長野県･岐阜県",
    "region": "近畿･北陸",
    "remarks": null
  },
  {
    "No": "177",
    "name": "位山",
    "latitude": "36.0383333",
    "longitude": "137.1966666",
    "yomi": "くらいやま",
    "elevation": "1529",
    "prefecture": "岐阜県",
    "region": "近畿･北陸",
    "remarks": null
  },
  {
    "No": "178",
    "name": "金剛堂山",
    "latitude": "36.3788888",
    "longitude": "137.0488888",
    "yomi": "こんごうどうざん",
    "elevation": "1650",
    "prefecture": "富山県",
    "region": "近畿･北陸",
    "remarks": null
  },
  {
    "No": "179",
    "name": "笈ヶ岳",
    "latitude": "36.2986111",
    "longitude": "136.7922222",
    "yomi": "おいずるがだけ",
    "elevation": "1841",
    "prefecture": "富山県・石川県・岐阜県",
    "region": "近畿･北陸",
    "remarks": null
  },
  {
    "No": "180",
    "name": "大日ヶ岳",
    "latitude": "36.0013888",
    "longitude": "136.8377777",
    "yomi": "だいにちがたけ",
    "elevation": "1709",
    "prefecture": "岐阜県",
    "region": "近畿･北陸",
    "remarks": null
  },
  {
    "No": "181",
    "name": "能郷白山（権現山）",
    "latitude": "35.7625",
    "longitude": "136.5141666",
    "yomi": "のうごうはくさん（ごんげんさん）",
    "elevation": "1617",
    "prefecture": "岐阜県",
    "region": "近畿･北陸",
    "remarks": null
  },
  {
    "No": "182",
    "name": "御在所山",
    "latitude": "35.0205555",
    "longitude": "136.4177777",
    "yomi": "ございしょやま",
    "elevation": "1212",
    "prefecture": "滋賀県･三重県",
    "region": "近畿･北陸",
    "remarks": null
  },
  {
    "No": "183",
    "name": "金剛山",
    "latitude": "34.4194444",
    "longitude": "135.6730555",
    "yomi": "こんごうざん",
    "elevation": "1125",
    "prefecture": "奈良県",
    "region": "近畿･北陸",
    "remarks": null
  },
  {
    "No": "184",
    "name": "釈迦ヶ岳",
    "latitude": "34.1144444",
    "longitude": "135.9030555",
    "yomi": "しゃかがだけ",
    "elevation": "1800",
    "prefecture": "奈良県",
    "region": "近畿･北陸",
    "remarks": null
  },
  {
    "No": "185",
    "name": "伯母小岳",
    "latitude": "34.0775",
    "longitude": "135.6508333",
    "yomi": "おばこだけ",
    "elevation": "1344",
    "prefecture": "奈良県",
    "region": "近畿･北陸",
    "remarks": null
  },
  {
    "No": "186",
    "name": "武奈ヶ岳",
    "latitude": "35.2647222",
    "longitude": "135.8969444",
    "yomi": "ぶながだけ",
    "elevation": "1214",
    "prefecture": "滋賀県",
    "region": "近畿･北陸",
    "remarks": null
  },
  {
    "No": "187",
    "name": "氷ノ山（須賀ノ山）",
    "latitude": "35.3538888",
    "longitude": "134.5138888",
    "yomi": "ひょうのせん（すがのせん）",
    "elevation": "1510",
    "prefecture": "兵庫県・鳥取県",
    "region": "近畿･北陸",
    "remarks": null
  },
  {
    "No": "188",
    "name": "蒜山（上蒜山）",
    "latitude": "35.325",
    "longitude": "133.6633333",
    "yomi": "ひるぜん（かみひるぜん）",
    "elevation": "1202",
    "prefecture": "鳥取県･岡山県",
    "region": "中四国・九州",
    "remarks": null
  },
  {
    "No": "189",
    "name": "三瓶山（男三瓶山）",
    "latitude": "35.1405555",
    "longitude": "132.6216666",
    "yomi": "さんべさん（おさんべさん）",
    "elevation": "1126",
    "prefecture": "島根県",
    "region": "中四国・九州",
    "remarks": null
  },
  {
    "No": "190",
    "name": "三嶺",
    "latitude": "33.8394444",
    "longitude": "133.9877777",
    "yomi": "みうね",
    "elevation": "1894",
    "prefecture": "徳島県･高知県",
    "region": "中四国・九州",
    "remarks": "H26年標高変更"
  },
  {
    "No": "191",
    "name": "東赤石山",
    "latitude": "33.875",
    "longitude": "133.375",
    "yomi": "ひがしあかいしやま",
    "elevation": "1706",
    "prefecture": "愛媛県",
    "region": "中四国・九州",
    "remarks": null
  },
  {
    "No": "192",
    "name": "笹ヶ峰",
    "latitude": "33.8280555",
    "longitude": "133.2747222",
    "yomi": "ささがみね",
    "elevation": "1860",
    "prefecture": "愛媛県･高知県",
    "region": "中四国・九州",
    "remarks": "H26年標高変更"
  },
  {
    "No": "193",
    "name": "英彦山（南岳）",
    "latitude": "33.4761111",
    "longitude": "130.9261111",
    "yomi": "ひこさん",
    "elevation": "1199",
    "prefecture": "福岡県･大分県",
    "region": "中四国・九州",
    "remarks": "H26年標高変更"
  },
  {
    "No": "194",
    "name": "雲仙岳（普賢岳）",
    "latitude": "32.76",
    "longitude": "130.2922222",
    "yomi": "うんぜんだけ（ふげんだけ）",
    "elevation": "1359",
    "prefecture": "長崎県",
    "region": "中四国・九州",
    "remarks": null
  },
  {
    "No": "195",
    "name": "由布岳",
    "latitude": "33.2822222",
    "longitude": "131.3902777",
    "yomi": "ゆふだけ",
    "elevation": "1583",
    "prefecture": "大分県",
    "region": "中四国・九州",
    "remarks": null
  },
  {
    "No": "196",
    "name": "大崩山",
    "latitude": "32.7377777",
    "longitude": "131.5130555",
    "yomi": "おおくえやま",
    "elevation": "1644",
    "prefecture": "宮崎県",
    "region": "中四国・九州",
    "remarks": null
  },
  {
    "No": "197",
    "name": "市房山",
    "latitude": "32.3116666",
    "longitude": "131.1011111",
    "yomi": "いちふさやま",
    "elevation": "1721",
    "prefecture": "熊本県・宮崎県",
    "region": "中四国・九州",
    "remarks": null
  },
  {
    "No": "198",
    "name": "尾鈴山",
    "latitude": "32.2991666",
    "longitude": "131.4266666",
    "yomi": "おすずやま",
    "elevation": "1405",
    "prefecture": "宮崎県",
    "region": "中四国・九州",
    "remarks": null
  },
  {
    "No": "199",
    "name": "霧島山（高千穂峰）",
    "latitude": "31.8863888",
    "longitude": "130.9188888",
    "yomi": "きりしまやま（たかちほみね）",
    "elevation": "1574",
    "prefecture": "宮崎県",
    "region": "中四国・九州",
    "remarks": "H26年標高変更"
  },
  {
    "No": "200",
    "name": "御岳（北岳）",
    "latitude": "31.5886111",
    "longitude": "130.6547222",
    "yomi": "おんたけ（きただけ）",
    "elevation": "1117",
    "prefecture": "鹿児島県",
    "region": "中四国・九州",
    "remarks": null
  },
  {
    "No": "201",
    "name": "ニセイカウシュッペ山",
    "latitude": "43.78",
    "longitude": "142.9852777",
    "yomi": "にせいかうしゅっぺさん",
    "elevation": "1883",
    "prefecture": "北海道",
    "region": "北海道",
    "remarks": null
  },
  {
    "No": "202",
    "name": "オプタテシケ山",
    "latitude": "43.4702777",
    "longitude": "142.7516666",
    "yomi": "おぷたてしけやま",
    "elevation": "2013",
    "prefecture": "北海道",
    "region": "北海道",
    "remarks": "H26年標高変更"
  },
  {
    "No": "203",
    "name": "神威岳",
    "latitude": "42.4283333",
    "longitude": "142.9069444",
    "yomi": "かむいだけ",
    "elevation": "1600",
    "prefecture": "北海道",
    "region": "北海道",
    "remarks": null
  },
  {
    "No": "204",
    "name": "余市岳",
    "latitude": "43.0327777",
    "longitude": "141.0197222",
    "yomi": "よいちだけ",
    "elevation": "1488",
    "prefecture": "北海道",
    "region": "北海道",
    "remarks": null
  },
  {
    "No": "205",
    "name": "ニセコアンヌプリ",
    "latitude": "42.875",
    "longitude": "140.6588888",
    "yomi": "にせこあんぬぷり",
    "elevation": "1308",
    "prefecture": "北海道",
    "region": "北海道",
    "remarks": null
  },
  {
    "No": "206",
    "name": "狩場山",
    "latitude": "42.6133333",
    "longitude": "139.9405555",
    "yomi": "かりばやま",
    "elevation": "1520",
    "prefecture": "北海道",
    "region": "北海道",
    "remarks": null
  },
  {
    "No": "207",
    "name": "大千軒岳",
    "latitude": "41.5794444",
    "longitude": "140.1608333",
    "yomi": "だいせんげんだけ",
    "elevation": "1072",
    "prefecture": "北海道",
    "region": "北海道",
    "remarks": null
  },
  {
    "No": "208",
    "name": "五葉山",
    "latitude": "39.2052777",
    "longitude": "141.7322222",
    "yomi": "ごようざん",
    "elevation": "1351",
    "prefecture": "岩手県",
    "region": "東北",
    "remarks": null
  },
  {
    "No": "209",
    "name": "烏帽子岳（乳頭山）",
    "latitude": "39.805",
    "longitude": "140.8386111",
    "yomi": "えぼしだけ",
    "elevation": "1478",
    "prefecture": "岩手県・秋田県",
    "region": "東北",
    "remarks": null
  },
  {
    "No": "210",
    "name": "太平山",
    "latitude": "39.7969444",
    "longitude": "140.3105555",
    "yomi": "たいへいざん",
    "elevation": "1170",
    "prefecture": "秋田県",
    "region": "東北",
    "remarks": null
  },
  {
    "No": "211",
    "name": "摩耶山",
    "latitude": "38.5202777",
    "longitude": "139.7277777",
    "yomi": "まやさん",
    "elevation": "1020",
    "prefecture": "山形県",
    "region": "東北",
    "remarks": null
  },
  {
    "No": "212",
    "name": "祝瓶山",
    "latitude": "38.1975",
    "longitude": "139.8797222",
    "yomi": "いわいがめやま",
    "elevation": "1417",
    "prefecture": "山形県",
    "region": "東北",
    "remarks": null
  },
  {
    "No": "213",
    "name": "泉ヶ岳",
    "latitude": "38.4119444",
    "longitude": "140.7088888",
    "yomi": "いずみがたけ",
    "elevation": "1175",
    "prefecture": "宮城県",
    "region": "東北",
    "remarks": null
  },
  {
    "No": "214",
    "name": "一切経山",
    "latitude": "37.7352777",
    "longitude": "140.2444444",
    "yomi": "いっさいきょうさん",
    "elevation": "1949",
    "prefecture": "福島県",
    "region": "東北",
    "remarks": null
  },
  {
    "No": "215",
    "name": "大滝根山",
    "latitude": "37.355",
    "longitude": "140.7016666",
    "yomi": "おおたきねやま",
    "elevation": "1192",
    "prefecture": "福島県",
    "region": "東北",
    "remarks": null
  },
  {
    "No": "216",
    "name": "粟ヶ岳",
    "latitude": "37.5552777",
    "longitude": "139.1886111",
    "yomi": "あわがたけ",
    "elevation": "1293",
    "prefecture": "新潟県",
    "region": "上信越",
    "remarks": null
  },
  {
    "No": "217",
    "name": "浅草岳",
    "latitude": "37.3436111",
    "longitude": "139.2336111",
    "yomi": "あさくさだけ",
    "elevation": "1585",
    "prefecture": "新潟県・福島県",
    "region": "上信越",
    "remarks": null
  },
  {
    "No": "218",
    "name": "金北山",
    "latitude": "38.1038888",
    "longitude": "138.3497222",
    "yomi": "きんぽくさん",
    "elevation": "1172",
    "prefecture": "新潟県",
    "region": "上信越",
    "remarks": null
  },
  {
    "No": "219",
    "name": "米山",
    "latitude": "37.2894444",
    "longitude": "138.4838888",
    "yomi": "よねやま",
    "elevation": "993",
    "prefecture": "新潟県",
    "region": "上信越",
    "remarks": null
  },
  {
    "No": "220",
    "name": "八溝山",
    "latitude": "36.9302777",
    "longitude": "140.2730555",
    "yomi": "やみぞさん",
    "elevation": "1022",
    "prefecture": "茨城県・福島県",
    "region": "関東",
    "remarks": null
  },
  {
    "No": "221",
    "name": "二岐山",
    "latitude": "37.2463888",
    "longitude": "139.9672222",
    "yomi": "ふたまたやま",
    "elevation": "1544",
    "prefecture": "福島県",
    "region": "東北",
    "remarks": null
  },
  {
    "No": "222",
    "name": "男鹿岳",
    "latitude": "37.0852777",
    "longitude": "139.8219444",
    "yomi": "おじかだけ",
    "elevation": "1777",
    "prefecture": "福島県･栃木県",
    "region": "関東",
    "remarks": null
  },
  {
    "No": "223",
    "name": "荒海山（太郎岳）",
    "latitude": "37.0361111",
    "longitude": "139.6436111",
    "yomi": "あらかいざん（たろうだけ）",
    "elevation": "1581",
    "prefecture": "福島県･栃木県",
    "region": "関東",
    "remarks": null
  },
  {
    "No": "224",
    "name": "七ヶ岳",
    "latitude": "37.1241666",
    "longitude": "139.6575",
    "yomi": "ななつがたけ",
    "elevation": "1636",
    "prefecture": "福島県",
    "region": "東北",
    "remarks": null
  },
  {
    "No": "225",
    "name": "景鶴山",
    "latitude": "36.9569444",
    "longitude": "139.2105555",
    "yomi": "けいづるやま",
    "elevation": "2004",
    "prefecture": "群馬県･新潟県",
    "region": "上信越",
    "remarks": null
  },
  {
    "No": "226",
    "name": "釈迦ヶ岳（高原山）",
    "latitude": "36.9",
    "longitude": "139.7766666",
    "yomi": "しゃかがだけ（たかはらやま）",
    "elevation": "1795",
    "prefecture": "栃木県",
    "region": "関東",
    "remarks": null
  },
  {
    "No": "227",
    "name": "太郎山",
    "latitude": "36.8177777",
    "longitude": "139.4827777",
    "yomi": "たろうさん",
    "elevation": "2368",
    "prefecture": "栃木県",
    "region": "関東",
    "remarks": "H26年標高変更"
  },
  {
    "No": "228",
    "name": "袈裟丸山",
    "latitude": "36.6494444",
    "longitude": "139.3272222",
    "yomi": "けさまるやま",
    "elevation": "1961",
    "prefecture": "栃木県・群馬県",
    "region": "関東",
    "remarks": null
  },
  {
    "No": "229",
    "name": "朝日岳",
    "latitude": "36.8805555",
    "longitude": "138.9725",
    "yomi": "あさひだけ",
    "elevation": "1945",
    "prefecture": "群馬県",
    "region": "上信越",
    "remarks": null
  },
  {
    "No": "230",
    "name": "笠ヶ岳",
    "latitude": "36.6766666",
    "longitude": "138.4813888",
    "yomi": "かさがたけ",
    "elevation": "2076",
    "prefecture": "長野県",
    "region": "上信越",
    "remarks": null
  },
  {
    "No": "231",
    "name": "横手山",
    "latitude": "36.6688888",
    "longitude": "138.5258333",
    "yomi": "よこてやま",
    "elevation": "2307",
    "prefecture": "群馬県･長野県",
    "region": "上信越",
    "remarks": null
  },
  {
    "No": "232",
    "name": "諏訪山",
    "latitude": "36.04",
    "longitude": "138.7294444",
    "yomi": "すわやま",
    "elevation": "1549",
    "prefecture": "群馬県",
    "region": "関東",
    "remarks": null
  },
  {
    "No": "233",
    "name": "国師ヶ岳",
    "latitude": "35.8708333",
    "longitude": "138.6730555",
    "yomi": "こくしがたけ",
    "elevation": "2592",
    "prefecture": "山梨県･長野県",
    "region": "関東",
    "remarks": null
  },
  {
    "No": "234",
    "name": "三頭山",
    "latitude": "35.7391666",
    "longitude": "139.0138888",
    "yomi": "みとうさん",
    "elevation": "1531",
    "prefecture": "東京都",
    "region": "関東",
    "remarks": null
  },
  {
    "No": "235",
    "name": "大山",
    "latitude": "35.4408333",
    "longitude": "139.2313888",
    "yomi": "おおやま",
    "elevation": "1252",
    "prefecture": "神奈川県",
    "region": "関東",
    "remarks": null
  },
  {
    "No": "236",
    "name": "金時山",
    "latitude": "35.2897222",
    "longitude": "139.005",
    "yomi": "きんときやま",
    "elevation": "1212",
    "prefecture": "静岡県･神奈川県",
    "region": "関東",
    "remarks": "H26年標高変更"
  },
  {
    "No": "237",
    "name": "神山",
    "latitude": "35.2333333",
    "longitude": "139.0208333",
    "yomi": "かみやま",
    "elevation": "1438",
    "prefecture": "神奈川県",
    "region": "関東",
    "remarks": null
  },
  {
    "No": "238",
    "name": "黒岳",
    "latitude": "35.5519444",
    "longitude": "138.7494444",
    "yomi": "くろだけ",
    "elevation": "1793",
    "prefecture": "山梨県",
    "region": "関東",
    "remarks": null
  },
  {
    "No": "239",
    "name": "鉢伏山",
    "latitude": "36.1630555",
    "longitude": "138.0591666",
    "yomi": "はちぶせやま",
    "elevation": "1929",
    "prefecture": "長野県",
    "region": "南･中央アルプス",
    "remarks": "H26年標高変更"
  },
  {
    "No": "240",
    "name": "入笠山",
    "latitude": "35.8963888",
    "longitude": "138.1716666",
    "yomi": "にゅうがさやま",
    "elevation": "1955",
    "prefecture": "長野県",
    "region": "南･中央アルプス",
    "remarks": null
  },
  {
    "No": "241",
    "name": "アサヨ峰",
    "latitude": "35.7316666",
    "longitude": "138.2413888",
    "yomi": "あさよみね",
    "elevation": "2799",
    "prefecture": "山梨県",
    "region": "南･中央アルプス",
    "remarks": null
  },
  {
    "No": "242",
    "name": "奥茶臼山",
    "latitude": "35.485",
    "longitude": "138.0691666",
    "yomi": "おくちゃうすやま",
    "elevation": "2474",
    "prefecture": "長野県",
    "region": "南･中央アルプス",
    "remarks": null
  },
  {
    "No": "243",
    "name": "茶臼岳",
    "latitude": "35.3691666",
    "longitude": "138.1405555",
    "yomi": "ちゃうすだけ",
    "elevation": "2604",
    "prefecture": "長野県・静岡県",
    "region": "南･中央アルプス",
    "remarks": null
  },
  {
    "No": "244",
    "name": "黒法師岳",
    "latitude": "35.1961111",
    "longitude": "138.0294444",
    "yomi": "くろほうしだけ",
    "elevation": "2068",
    "prefecture": "静岡県",
    "region": "南･中央アルプス",
    "remarks": "H26年標高変更"
  },
  {
    "No": "245",
    "name": "高塚山",
    "latitude": "35.1155555",
    "longitude": "138.0036111",
    "yomi": "たかつかやま",
    "elevation": "1621",
    "prefecture": "静岡県",
    "region": "南･中央アルプス",
    "remarks": null
  },
  {
    "No": "246",
    "name": "熊伏山",
    "latitude": "35.2633333",
    "longitude": "137.895",
    "yomi": "くまぶしやま",
    "elevation": "1654",
    "prefecture": "長野県",
    "region": "南･中央アルプス",
    "remarks": "H26年標高変更"
  },
  {
    "No": "247",
    "name": "山伏",
    "latitude": "35.3044444",
    "longitude": "138.2852777",
    "yomi": "やんぶし",
    "elevation": "2013",
    "prefecture": "山梨県･静岡県",
    "region": "南･中央アルプス",
    "remarks": null
  },
  {
    "No": "248",
    "name": "斑尾山",
    "latitude": "36.8375",
    "longitude": "138.2744444",
    "yomi": "まだらおやま",
    "elevation": "1382",
    "prefecture": "長野県",
    "region": "北アルプス・北信",
    "remarks": null
  },
  {
    "No": "249",
    "name": "焼山",
    "latitude": "36.9208333",
    "longitude": "138.0358333",
    "yomi": "やけやま",
    "elevation": "2400",
    "prefecture": "新潟県",
    "region": "北アルプス・北信",
    "remarks": null
  },
  {
    "No": "250",
    "name": "青海黒姫山",
    "latitude": "36.9766666",
    "longitude": "137.79",
    "yomi": "おうみくろひめやま",
    "elevation": "1221",
    "prefecture": "新潟県",
    "region": "北アルプス・北信",
    "remarks": "H26年標高変更"
  },
  {
    "No": "251",
    "name": "朝日岳",
    "latitude": "36.8266666",
    "longitude": "137.73",
    "yomi": "あさひだけ",
    "elevation": "2418",
    "prefecture": "新潟県･富山県",
    "region": "北アルプス・北信",
    "remarks": null
  },
  {
    "No": "252",
    "name": "唐松岳",
    "latitude": "36.6872222",
    "longitude": "137.7547222",
    "yomi": "からまつだけ",
    "elevation": "2696",
    "prefecture": "富山県･長野県",
    "region": "北アルプス・北信",
    "remarks": null
  },
  {
    "No": "253",
    "name": "爺ヶ岳",
    "latitude": "36.5883333",
    "longitude": "137.7508333",
    "yomi": "じいがたけ",
    "elevation": "2670",
    "prefecture": "富山県･長野県",
    "region": "北アルプス・北信",
    "remarks": null
  },
  {
    "No": "254",
    "name": "蓮華岳",
    "latitude": "36.5358333",
    "longitude": "137.7105555",
    "yomi": "れんげだけ",
    "elevation": "2799",
    "prefecture": "富山県･長野県",
    "region": "北アルプス・北信",
    "remarks": null
  },
  {
    "No": "255",
    "name": "野口五郎岳",
    "latitude": "36.4327777",
    "longitude": "137.6377777",
    "yomi": "のぐちごろうだけ",
    "elevation": "2924",
    "prefecture": "富山県･長野県",
    "region": "北アルプス・北信",
    "remarks": null
  },
  {
    "No": "256",
    "name": "三俣蓮華岳",
    "latitude": "36.39",
    "longitude": "137.5877777",
    "yomi": "みつまたれんげだけ",
    "elevation": "2841",
    "prefecture": "富山県･岐阜県・長野県",
    "region": "北アルプス・北信",
    "remarks": null
  },
  {
    "No": "257",
    "name": "鍬崎山",
    "latitude": "36.54",
    "longitude": "137.4780555",
    "yomi": "くわさきやま",
    "elevation": "2090",
    "prefecture": "富山県",
    "region": "北アルプス・北信",
    "remarks": null
  },
  {
    "No": "258",
    "name": "鉢盛山",
    "latitude": "36.0866666",
    "longitude": "137.7547222",
    "yomi": "はちもりやま",
    "elevation": "2447",
    "prefecture": "長野県",
    "region": "南･中央アルプス",
    "remarks": "H26年標高変更"
  },
  {
    "No": "259",
    "name": "奥三界岳",
    "latitude": "35.6816666",
    "longitude": "137.5072222",
    "yomi": "おくさんがいだけ",
    "elevation": "1811",
    "prefecture": "岐阜県･長野県",
    "region": "南･中央アルプス",
    "remarks": "H26年標高変更"
  },
  {
    "No": "260",
    "name": "越百山",
    "latitude": "35.6794444",
    "longitude": "137.8033333",
    "yomi": "こすもやま",
    "elevation": "2614",
    "prefecture": "長野県",
    "region": "南･中央アルプス",
    "remarks": "H26年標高変更"
  },
  {
    "No": "261",
    "name": "南木曽岳",
    "latitude": "35.5925",
    "longitude": "137.6441666",
    "yomi": "なぎそだけ",
    "elevation": "1679",
    "prefecture": "長野県",
    "region": "南･中央アルプス",
    "remarks": null
  },
  {
    "No": "262",
    "name": "白木峰",
    "latitude": "36.4155555",
    "longitude": "137.1122222",
    "yomi": "しらきみね",
    "elevation": "1596",
    "prefecture": "富山県･岐阜県",
    "region": "近畿･北陸",
    "remarks": null
  },
  {
    "No": "263",
    "name": "人形山",
    "latitude": "36.3488888",
    "longitude": "136.9397222",
    "yomi": "にんぎょうざん",
    "elevation": "1726",
    "prefecture": "岐阜県･富山県",
    "region": "近畿･北陸",
    "remarks": null
  },
  {
    "No": "264",
    "name": "医王山",
    "latitude": "36.5127777",
    "longitude": "136.7961111",
    "yomi": "いおうぜん",
    "elevation": "939",
    "prefecture": "富山県･石川県",
    "region": "近畿･北陸",
    "remarks": null
  },
  {
    "No": "265",
    "name": "大門山",
    "latitude": "36.3652777",
    "longitude": "136.8036111",
    "yomi": "だいもんさん",
    "elevation": "1572",
    "prefecture": "富山県･石川県",
    "region": "近畿･北陸",
    "remarks": null
  },
  {
    "No": "266",
    "name": "大笠山",
    "latitude": "36.3205555",
    "longitude": "136.7897222",
    "yomi": "おおがさやま",
    "elevation": "1822",
    "prefecture": "富山県･石川県",
    "region": "近畿･北陸",
    "remarks": null
  },
  {
    "No": "267",
    "name": "三方岩岳",
    "latitude": "36.2588888",
    "longitude": "136.8444444",
    "yomi": "さんぽういわだけ",
    "elevation": "1736",
    "prefecture": "石川県･岐阜県",
    "region": "近畿･北陸",
    "remarks": null
  },
  {
    "No": "268",
    "name": "猿ヶ馬場山",
    "latitude": "36.2258333",
    "longitude": "136.9427777",
    "yomi": "さるがばんばやま",
    "elevation": "1875",
    "prefecture": "岐阜県",
    "region": "近畿･北陸",
    "remarks": null
  },
  {
    "No": "269",
    "name": "経ヶ岳",
    "latitude": "36.0463888",
    "longitude": "136.6219444",
    "yomi": "きょうがたけ",
    "elevation": "1625",
    "prefecture": "福井県",
    "region": "近畿･北陸",
    "remarks": null
  },
  {
    "No": "270",
    "name": "野伏ヶ岳",
    "latitude": "36.0127777",
    "longitude": "136.7325",
    "yomi": "のぶせがたけ",
    "elevation": "1674",
    "prefecture": "岐阜県･福井県",
    "region": "近畿･北陸",
    "remarks": null
  },
  {
    "No": "271",
    "name": "鷲ヶ岳",
    "latitude": "35.9402777",
    "longitude": "136.9713888",
    "yomi": "わしがたけ",
    "elevation": "1671",
    "prefecture": "岐阜県",
    "region": "近畿･北陸",
    "remarks": "H20年標高変更"
  },
  {
    "No": "272",
    "name": "川上岳",
    "latitude": "36.0083333",
    "longitude": "137.1494444",
    "yomi": "かおれだけ",
    "elevation": "1625",
    "prefecture": "岐阜県",
    "region": "近畿･北陸",
    "remarks": "H26年標高変更"
  },
  {
    "No": "273",
    "name": "冠山",
    "latitude": "35.7797222",
    "longitude": "136.4094444",
    "yomi": "かんむりやま",
    "elevation": "1257",
    "prefecture": "福井県･岐阜県",
    "region": "近畿･北陸",
    "remarks": null
  },
  {
    "No": "274",
    "name": "藤原岳",
    "latitude": "35.1586111",
    "longitude": "136.4527777",
    "yomi": "ふじわらだけ",
    "elevation": "1120",
    "prefecture": "三重県･滋賀県",
    "region": "近畿･北陸",
    "remarks": null
  },
  {
    "No": "275",
    "name": "倶留尊山",
    "latitude": "34.5308333",
    "longitude": "136.1702777",
    "yomi": "くろそやま",
    "elevation": "1037",
    "prefecture": "三重県･奈良県",
    "region": "近畿･北陸",
    "remarks": "H21年標高変更"
  },
  {
    "No": "276",
    "name": "三峰山",
    "latitude": "34.4486111",
    "longitude": "136.2063888",
    "yomi": "みうねやま",
    "elevation": "1235",
    "prefecture": "三重県･奈良県",
    "region": "近畿･北陸",
    "remarks": null
  },
  {
    "No": "277",
    "name": "高見山",
    "latitude": "34.4286111",
    "longitude": "136.0883333",
    "yomi": "たかみやま",
    "elevation": "1248",
    "prefecture": "三重県･奈良県",
    "region": "近畿･北陸",
    "remarks": null
  },
  {
    "No": "278",
    "name": "竜門岳",
    "latitude": "34.4405555",
    "longitude": "135.8977777",
    "yomi": "りゅうもんがたけ",
    "elevation": "904",
    "prefecture": "奈良県",
    "region": "近畿･北陸",
    "remarks": null
  },
  {
    "No": "279",
    "name": "護摩壇山",
    "latitude": "34.0575",
    "longitude": "135.5669444",
    "yomi": "ごまだんざん",
    "elevation": "1372",
    "prefecture": "奈良県・和歌山県",
    "region": "近畿･北陸",
    "remarks": null
  },
  {
    "No": "280",
    "name": "葛城山",
    "latitude": "34.4561111",
    "longitude": "135.6822222",
    "yomi": "かつらぎさん",
    "elevation": "959",
    "prefecture": "奈良県･大阪府",
    "region": "近畿･北陸",
    "remarks": null
  },
  {
    "No": "281",
    "name": "蓬莱山",
    "latitude": "35.2094444",
    "longitude": "135.8858333",
    "yomi": "ほうらいさん",
    "elevation": "1174",
    "prefecture": "滋賀県",
    "region": "近畿･北陸",
    "remarks": null
  },
  {
    "No": "282",
    "name": "大比叡（比叡山）",
    "latitude": "35.0658333",
    "longitude": "135.8344444",
    "yomi": "だいひえい（ひえいざん）",
    "elevation": "848",
    "prefecture": "滋賀県・京都府",
    "region": "近畿･北陸",
    "remarks": null
  },
  {
    "No": "283",
    "name": "愛宕山",
    "latitude": "35.0602777",
    "longitude": "135.6341666",
    "yomi": "あたごやま",
    "elevation": "924",
    "prefecture": "京都府",
    "region": "近畿･北陸",
    "remarks": null
  },
  {
    "No": "284",
    "name": "六甲山",
    "latitude": "34.7780555",
    "longitude": "135.2636111",
    "yomi": "ろっこうさん",
    "elevation": "931",
    "prefecture": "兵庫県",
    "region": "近畿･北陸",
    "remarks": null
  },
  {
    "No": "285",
    "name": "扇ノ山",
    "latitude": "35.4397222",
    "longitude": "134.4408333",
    "yomi": "おおぎのせん",
    "elevation": "1310",
    "prefecture": "鳥取県",
    "region": "中四国・九州",
    "remarks": null
  },
  {
    "No": "286",
    "name": "那岐山",
    "latitude": "35.1716666",
    "longitude": "134.1802777",
    "yomi": "なぎさん",
    "elevation": "1255",
    "prefecture": "鳥取県・岡山県",
    "region": "中四国・九州",
    "remarks": null
  },
  {
    "No": "287",
    "name": "道後山",
    "latitude": "35.0694444",
    "longitude": "133.2327777",
    "yomi": "どうごやま",
    "elevation": "1271",
    "prefecture": "広島県･鳥取県",
    "region": "中四国・九州",
    "remarks": null
  },
  {
    "No": "288",
    "name": "吾妻山",
    "latitude": "35.0680555",
    "longitude": "133.0330555",
    "yomi": "あづまやま",
    "elevation": "1239",
    "prefecture": "広島県･島根県",
    "region": "中四国・九州",
    "remarks": null
  },
  {
    "No": "289",
    "name": "伊予富士",
    "latitude": "33.7880555",
    "longitude": "133.2480555",
    "yomi": "いよふじ",
    "elevation": "1756",
    "prefecture": "愛媛県･高知県",
    "region": "中四国・九州",
    "remarks": null
  },
  {
    "No": "290",
    "name": "瓶ヶ森",
    "latitude": "33.7947222",
    "longitude": "133.1933333",
    "yomi": "かめがもり",
    "elevation": "1897",
    "prefecture": "愛媛県",
    "region": "中四国・九州",
    "remarks": "H26年標高変更"
  },
  {
    "No": "291",
    "name": "三本杭",
    "latitude": "33.1883333",
    "longitude": "132.6352777",
    "yomi": "さんぼんぐい",
    "elevation": "1226",
    "prefecture": "愛媛県",
    "region": "中四国・九州",
    "remarks": null
  },
  {
    "No": "292",
    "name": "篠山",
    "latitude": "33.0558333",
    "longitude": "132.6591666",
    "yomi": "ささやま",
    "elevation": "1065",
    "prefecture": "愛媛県･高知県",
    "region": "中四国・九州",
    "remarks": null
  },
  {
    "No": "293",
    "name": "背振山",
    "latitude": "33.4363888",
    "longitude": "130.3686111",
    "yomi": "せぶりやま",
    "elevation": "1055",
    "prefecture": "福岡県･佐賀県",
    "region": "中四国・九州",
    "remarks": null
  },
  {
    "No": "294",
    "name": "多良岳",
    "latitude": "32.9755555",
    "longitude": "130.0927777",
    "yomi": "たらだけ",
    "elevation": "996",
    "prefecture": "佐賀県",
    "region": "中四国・九州",
    "remarks": null
  },
  {
    "No": "295",
    "name": "鶴見岳",
    "latitude": "33.2866666",
    "longitude": "131.4297222",
    "yomi": "つるみだけ",
    "elevation": "1375",
    "prefecture": "大分県",
    "region": "中四国・九州",
    "remarks": null
  },
  {
    "No": "296",
    "name": "大船山",
    "latitude": "33.095",
    "longitude": "131.2805555",
    "yomi": "たいせんざん",
    "elevation": "1786",
    "prefecture": "大分県",
    "region": "中四国・九州",
    "remarks": null
  },
  {
    "No": "297",
    "name": "湧蓋山",
    "latitude": "33.14",
    "longitude": "131.1644444",
    "yomi": "わいたさん",
    "elevation": "1500",
    "prefecture": "大分県",
    "region": "中四国・九州",
    "remarks": null
  },
  {
    "No": "298",
    "name": "傾山",
    "latitude": "32.8388888",
    "longitude": "131.4758333",
    "yomi": "かたむきやま",
    "elevation": "1605",
    "prefecture": "大分県",
    "region": "中四国・九州",
    "remarks": null
  },
  {
    "No": "299",
    "name": "国見岳",
    "latitude": "32.5472222",
    "longitude": "131.0183333",
    "yomi": "くにみだけ",
    "elevation": "1739",
    "prefecture": "熊本県･宮崎県",
    "region": "中四国・九州",
    "remarks": null
  },
  {
    "No": "300",
    "name": "大箆柄岳（高隈山）",
    "latitude": "31.4861111",
    "longitude": "130.8186111",
    "yomi": "おおのがらだけ（たかくまやま）",
    "elevation": "1236",
    "prefecture": "鹿児島県",
    "region": "中四国・九州",
    "remarks": null
  },
  {
    "No": "301",
    "name": "山上ヶ岳",
    "latitude": "34.2525",
    "longitude": "135.9411111",
    "yomi": "さんじょうがたけ",
    "elevation": "1719",
    "prefecture": "奈良県",
    "region": "近畿･北陸",
    "remarks": null
  }
]
